{"nodes": [{"name": "TORCH TECHNOLOGIES, INC.", "lat": 34.6679, "log": -86.5603, "state": "Alabama", "zip": "35802", "connections": 20, "outgree": 20, "ingree": 0, "id": 0}, {"name": "UNIVERSAL TECHNOLOGY CORPORATION", "lat": 39.739, "log": -84.0856, "state": "Ohio", "zip": "45432", "connections": 3, "outgree": 3, "ingree": 0, "id": 1}, {"name": "LOCKHEED MARTIN CORPORATION", "lat": 32.7115, "log": -97.0069, "state": "Texas", "zip": "75051", "connections": 3, "outgree": 3, "ingree": 0, "id": 2}, {"name": "NORTHROP GRUMMAN SYSTEMS CORPORATION", "lat": 33.8707, "log": -118.3715, "state": "California", "zip": "90278", "connections": 9, "outgree": 9, "ingree": 0, "id": 3}, {"name": "UNIVERSITY OF DAYTON", "lat": 39.7405, "log": -84.1789, "state": "Ohio", "zip": "45469", "connections": 9, "outgree": 9, "ingree": 0, "id": 4}, {"name": "BOEING COMPANY, THE", "lat": 38.6531, "log": -90.2435, "state": "Missouri", "zip": "63166", "connections": 3, "outgree": 3, "ingree": 0, "id": 5}, {"name": "RAYTHEON COMPANY", "lat": 32.0839, "log": -110.9004, "state": "Arizona", "zip": "85756", "connections": 96, "outgree": 96, "ingree": 0, "id": 6}, {"name": "IERUS TECHNOLOGIES, INC", "lat": 34.7059, "log": -86.6165, "state": "Alabama", "zip": "35805", "connections": 1, "outgree": 1, "ingree": 0, "id": 7}, {"name": "RAYTHEON COMPANY", "lat": 35.0717, "log": -106.509, "state": "New Mexico", "zip": "87123", "connections": 1, "outgree": 1, "ingree": 0, "id": 8}, {"name": "LOCKHEED MARTIN CORPORATION", "lat": 37.3983, "log": -122.0006, "state": "California", "zip": "94089", "connections": 6, "outgree": 6, "ingree": 0, "id": 9}, {"name": "BOEING COMPANY, THE", "lat": 38.7809, "log": -90.3669, "state": "Missouri", "zip": "63042", "connections": 2, "outgree": 2, "ingree": 0, "id": 10}, {"name": "PLASMA PROCESSES, LLC", "lat": 34.7789, "log": -86.5438, "state": "Alabama", "zip": "35811", "connections": 1, "outgree": 1, "ingree": 4, "id": 11}, {"name": "BOEING COMPANY, THE", "lat": 34.6583, "log": -86.7295, "state": "Alabama", "zip": "35824", "connections": 2, "outgree": 2, "ingree": 0, "id": 12}, {"name": "LOCKHEED MARTIN CORPORATION", "lat": 34.5794, "log": -118.1165, "state": "California", "zip": "93599", "connections": 52, "outgree": 52, "ingree": 0, "id": 13}, {"name": "GENERAL ATOMICS", "lat": 34.7448, "log": -86.6704, "state": "Alabama", "zip": "35806", "connections": 8, "outgree": 8, "ingree": 0, "id": 14}, {"name": "EXO-ATMOSPHERIC TECHNOLOGIES LLC", "lat": 43.0622, "log": -88.098, "state": "Wisconsin", "zip": "53005", "connections": 1, "outgree": 1, "ingree": 0, "id": 15}, {"name": "EXO-ATMOSPHERIC TECHNOLOGIES LLC", "lat": 43.1602, "log": -88.1128, "state": "Wisconsin", "zip": "53051", "connections": 1, "outgree": 1, "ingree": 0, "id": 16}, {"name": "TECH-X CORPORATION", "lat": 39.9914, "log": -105.2392, "state": "Colorado", "zip": "80303", "connections": 1, "outgree": 1, "ingree": 0, "id": 17}, {"name": "AEROJET ROCKETDYNE, INC.", "lat": 34.7448, "log": -86.6704, "state": "Alabama", "zip": "35806", "connections": 17, "outgree": 17, "ingree": 0, "id": 18}, {"name": "PURDUE UNIVERSITY", "lat": 40.4249, "log": -86.9162, "state": "Indiana", "zip": "47907", "connections": 1, "outgree": 1, "ingree": 3, "id": 19}, {"name": "CREARE LLC", "lat": 43.7045, "log": -72.285, "state": "New Hampshire", "zip": "03755", "connections": 1, "outgree": 1, "ingree": 0, "id": 20}, {"name": "ALLIANT TECHSYSTEMS OPERATIONS LLC", "lat": 39.6264, "log": -75.8458, "state": "Maryland", "zip": "21921", "connections": 3, "outgree": 3, "ingree": 3, "id": 21}, {"name": "UES, INC.", "lat": 39.739, "log": -84.0856, "state": "Ohio", "zip": "45432", "connections": 1, "outgree": 1, "ingree": 0, "id": 22}, {"name": "TELEDYNE BROWN ENGINEERING, INC.", "lat": 34.7059, "log": -86.6165, "state": "Alabama", "zip": "35805", "connections": 1, "outgree": 1, "ingree": 0, "id": 23}, {"name": "TROY 7, INC.", "lat": 34.7448, "log": -86.6704, "state": "Alabama", "zip": "35806", "connections": 1, "outgree": 1, "ingree": 0, "id": 24}, {"name": "INTEGRATION INNOVATION, INC.", "lat": 34.7448, "log": -86.6704, "state": "Alabama", "zip": "35806", "connections": 5, "outgree": 5, "ingree": 1, "id": 25}, {"name": "SOUTHERN RESEARCH INSTITUTE", "lat": 33.4951, "log": -86.8059, "state": "Alabama", "zip": "35205", "connections": 1, "outgree": 1, "ingree": 0, "id": 26}, {"name": "MODERN TECHNOLOGY SOLUTIONS, INC.", "lat": 38.8191, "log": -77.1484, "state": "Virginia", "zip": "22312", "connections": 11, "outgree": 11, "ingree": 0, "id": 27}, {"name": "GENERAL ELECTRIC COMPANY", "lat": 42.8091, "log": -73.8693, "state": "New York", "zip": "12309", "connections": 2, "outgree": 2, "ingree": 0, "id": 28}, {"name": "JACOBS GOVERNMENT SERVICES COMPANY", "lat": 38.8871, "log": -77.0932, "state": "Virginia", "zip": "22201", "connections": 1, "outgree": 1, "ingree": 0, "id": 29}, {"name": "SIMULATION TECHNOLOGIES, INC.", "lat": 34.7448, "log": -86.6704, "state": "Alabama", "zip": "35806", "connections": 0, "outgree": 0, "ingree": 1, "id": 30}, {"name": "BLUEHALO, LLC", "lat": 34.7448, "log": -86.6704, "state": "Alabama", "zip": "35806", "connections": 0, "outgree": 0, "ingree": 1, "id": 31}, {"name": "HILL TECHNICAL SOLUTIONS, LLC", "lat": 34.6679, "log": -86.5603, "state": "Alabama", "zip": "35802", "connections": 0, "outgree": 0, "ingree": 1, "id": 32}, {"name": "MONTE SANO RESEARCH CORPORATION", "lat": 34.6679, "log": -86.5603, "state": "Alabama", "zip": "35802", "connections": 0, "outgree": 0, "ingree": 1, "id": 33}, {"name": "OPTICAL SCIENCES CORPORATION", "lat": 34.7448, "log": -86.6704, "state": "Alabama", "zip": "35806", "connections": 0, "outgree": 0, "ingree": 1, "id": 34}, {"name": "AEGIS TECHNOLOGIES GROUP, LLC, THE", "lat": 34.7448, "log": -86.6704, "state": "Alabama", "zip": "35806", "connections": 0, "outgree": 0, "ingree": 1, "id": 35}, {"name": "HILL TECHNICAL SOLUTIONS, INC.", "lat": 34.6679, "log": -86.5603, "state": "Alabama", "zip": "35802", "connections": 0, "outgree": 0, "ingree": 1, "id": 36}, {"name": "RADIANCE TECHNOLOGIES, INC.", "lat": 34.7448, "log": -86.6704, "state": "Alabama", "zip": "35806", "connections": 0, "outgree": 0, "ingree": 1, "id": 37}, {"name": "TECHSOLVE, INC.", "lat": 39.188, "log": -84.458, "state": "Ohio", "zip": "45237", "connections": 0, "outgree": 0, "ingree": 1, "id": 38}, {"name": "COWLES CONSULTING LLC", "lat": 41.8696, "log": -72.3718, "state": "Connecticut", "zip": "06084", "connections": 0, "outgree": 0, "ingree": 1, "id": 39}, {"name": "AIRFLOW SCIENCES CORPORATION", "lat": 42.3615, "log": -83.3649, "state": "Michigan", "zip": "48150", "connections": 0, "outgree": 0, "ingree": 1, "id": 40}, {"name": "AEROJET ROCKETDYNE, INC.", "lat": 33.5948, "log": -92.8513, "state": "Arkansas", "zip": "71701", "connections": 0, "outgree": 0, "ingree": 1, "id": 41}, {"name": "ALLIANT TECHSYSTEMS OPERATIONS LLC", "lat": 39.4527, "log": -78.8926, "state": "West Virginia", "zip": "26726", "connections": 0, "outgree": 0, "ingree": 2, "id": 42}, {"name": "BOEING COMPANY, THE", "lat": 33.721, "log": -118.0033, "state": "California", "zip": "92647", "connections": 0, "outgree": 0, "ingree": 1, "id": 43}, {"name": "NAMMO DEFENSE SYSTEMS INC.", "lat": 33.4707, "log": -111.7188, "state": "Arizona", "zip": "85215", "connections": 0, "outgree": 0, "ingree": 1, "id": 44}, {"name": "STREAMLINE AUTOMATION, LLC", "lat": 34.7059, "log": -86.6165, "state": "Alabama", "zip": "35805", "connections": 0, "outgree": 0, "ingree": 1, "id": 45}, {"name": "P B & J PARTNERS LLC", "lat": 33.6013, "log": -111.8867, "state": "Arizona", "zip": "85260", "connections": 0, "outgree": 0, "ingree": 1, "id": 46}, {"name": "SIERRA ENGINEERING & SOFTWARE, INC.", "lat": 38.5662, "log": -121.3286, "state": "California", "zip": "95827", "connections": 0, "outgree": 0, "ingree": 1, "id": 47}, {"name": "PACIFIC SCIENTIFIC ENERGETIC MATERIALS COMPANY (CALIFORNIA) LLC", "lat": 33.3092, "log": -111.9198, "state": "Arizona", "zip": "85226", "connections": 0, "outgree": 0, "ingree": 3, "id": 48}, {"name": "Steven Nelson", "lat": 33.6773, "log": -118.0051, "state": "California", "zip": "92648", "connections": 0, "outgree": 0, "ingree": 1, "id": 49}, {"name": "UNIVERSITY OF TENNESSEE", "lat": 35.3468, "log": -86.22, "state": "Tennessee", "zip": "37388", "connections": 0, "outgree": 0, "ingree": 1, "id": 50}, {"name": "CARBON CARBON ADVANCED TECHNOLOGIES, INC.", "lat": 32.6289, "log": -97.1517, "state": "Texas", "zip": "76001", "connections": 0, "outgree": 0, "ingree": 1, "id": 51}, {"name": "FARO TECHNOLOGIES, INC.", "lat": 28.7577, "log": -81.3508, "state": "Florida", "zip": "32746", "connections": 0, "outgree": 0, "ingree": 1, "id": 52}, {"name": "3M INTERAMERICA INC", "lat": 45.0059, "log": -93.1059, "state": "Minnesota", "zip": "55144", "connections": 0, "outgree": 0, "ingree": 1, "id": 53}, {"name": "PACKAGING SYSTEMS, INC.", "lat": 34.4336, "log": -118.5007, "state": "California", "zip": "91350", "connections": 0, "outgree": 0, "ingree": 1, "id": 54}, {"name": "3M Company", "lat": 45.0059, "log": -93.1059, "state": "Minnesota", "zip": "55144", "connections": 0, "outgree": 0, "ingree": 1, "id": 55}, {"name": "CUBRC, INC.", "lat": 42.9255, "log": -78.7481, "state": "New York", "zip": "14225", "connections": 0, "outgree": 0, "ingree": 1, "id": 56}, {"name": "DZYNE TECHNOLOGIES INCORPORATED", "lat": 38.8604, "log": -77.2649, "state": "Virginia", "zip": "22031", "connections": 0, "outgree": 0, "ingree": 1, "id": 57}, {"name": "HYSONIC TECHNOLOGIES, LLC", "lat": 40.444, "log": -86.9237, "state": "Indiana", "zip": "47906", "connections": 0, "outgree": 0, "ingree": 1, "id": 58}, {"name": "MATERIALS RESEARCH & DESIGN INC", "lat": 40.0612, "log": -75.3999, "state": "Pennsylvania", "zip": "19087", "connections": 0, "outgree": 0, "ingree": 3, "id": 59}, {"name": "LOCKHEED MARTIN CORPORATION", "lat": 34.7059, "log": -86.6165, "state": "Alabama", "zip": "35805", "connections": 0, "outgree": 0, "ingree": 1, "id": 60}, {"name": "OCEANIT LABORATORIES, INC.", "lat": 21.3179, "log": -157.8521, "state": "Hawaii", "zip": "96813", "connections": 0, "outgree": 0, "ingree": 1, "id": 61}, {"name": "AAVID THERMACORE, INC.", "lat": 40.0766, "log": -76.3107, "state": "Pennsylvania", "zip": "17601", "connections": 0, "outgree": 0, "ingree": 1, "id": 62}, {"name": "Advanced Technologies Central LLC", "lat": 38.9348, "log": -92.3639, "state": "Missouri", "zip": "65203", "connections": 0, "outgree": 0, "ingree": 1, "id": 63}, {"name": "Florida A & M University", "lat": 30.4257, "log": -84.2877, "state": "Florida", "zip": "32307", "connections": 0, "outgree": 0, "ingree": 1, "id": 64}, {"name": "CASTHEON INC", "lat": 34.1774, "log": -118.9358, "state": "California", "zip": "91320", "connections": 0, "outgree": 0, "ingree": 1, "id": 65}, {"name": "STADCO", "lat": 34.0783, "log": -118.2113, "state": "California", "zip": "90031", "connections": 0, "outgree": 0, "ingree": 1, "id": 66}, {"name": "POWDERMET, INC.", "lat": 41.5696, "log": -81.5257, "state": "Ohio", "zip": "44117", "connections": 0, "outgree": 0, "ingree": 1, "id": 67}, {"name": "TRI MODELS, INC.", "lat": 33.718, "log": -118.0505, "state": "California", "zip": "92649", "connections": 0, "outgree": 0, "ingree": 3, "id": 68}, {"name": "MCCLOY ENGINEERING, LLC", "lat": 39.3266, "log": -84.5479, "state": "Ohio", "zip": "45014", "connections": 0, "outgree": 0, "ingree": 1, "id": 69}, {"name": "MARVIN ENGINEERING CO., INC.", "lat": 33.9745, "log": -118.3548, "state": "California", "zip": "90302", "connections": 0, "outgree": 0, "ingree": 2, "id": 70}, {"name": "NATIONAL TECHNICAL SYSTEMS, INC.", "lat": 34.4336, "log": -118.5007, "state": "California", "zip": "91350", "connections": 0, "outgree": 0, "ingree": 1, "id": 71}, {"name": "IBS ELECTRONICS, INC", "lat": 33.7249, "log": -117.909, "state": "California", "zip": "92704", "connections": 0, "outgree": 0, "ingree": 1, "id": 72}, {"name": "HEILIND MIL-AERO, LLC", "lat": 40.0726, "log": -105.508, "state": "New Jersey", "zip": "80481", "connections": 0, "outgree": 0, "ingree": 1, "id": 73}, {"name": "ENSIGN-BICKFORD AEROSPACE & DEFENSE COMPANY", "lat": 41.8759, "log": -72.8012, "state": "Connecticut", "zip": "06070", "connections": 0, "outgree": 0, "ingree": 3, "id": 74}, {"name": "P & R WATER TAXI LLC", "lat": 21.3179, "log": -157.8521, "state": "Hawaii", "zip": "96813", "connections": 0, "outgree": 0, "ingree": 1, "id": 75}, {"name": "SYNECTIC RESEARCH AND ANALYSIS, INC.", "lat": 34.7448, "log": -86.6704, "state": "Alabama", "zip": "35806", "connections": 0, "outgree": 0, "ingree": 2, "id": 76}, {"name": "VORTEX ENGINEERING, LLC", "lat": 32.8486, "log": -116.9862, "state": "California", "zip": "92071", "connections": 0, "outgree": 0, "ingree": 1, "id": 77}, {"name": "NATIONAL MICROCHIP", "lat": 33.754, "log": -117.7919, "state": "California", "zip": "92705", "connections": 0, "outgree": 0, "ingree": 1, "id": 78}, {"name": "INTEGRATED MACHINING COMPANY", "lat": 35.1506, "log": -106.569, "state": "New Mexico", "zip": "87109", "connections": 0, "outgree": 0, "ingree": 1, "id": 79}, {"name": "JACOBS TECHNOLOGY INC.", "lat": 35.3468, "log": -86.22, "state": "Tennessee", "zip": "37388", "connections": 0, "outgree": 0, "ingree": 1, "id": 80}, {"name": "CROSSFLOW TECHNOLOGIES, INC", "lat": 34.2739, "log": -86.2064, "state": "Alabama", "zip": "35950", "connections": 0, "outgree": 0, "ingree": 1, "id": 81}, {"name": "MICROTECHNOLOGIES LLC", "lat": 38.928, "log": -77.2649, "state": "Virginia", "zip": "22182", "connections": 0, "outgree": 0, "ingree": 1, "id": 82}, {"name": "FOUR LLC", "lat": 38.9252, "log": -77.3928, "state": "Virginia", "zip": "20171", "connections": 0, "outgree": 0, "ingree": 1, "id": 83}, {"name": "FORCE 3, LLC", "lat": 39.0112, "log": -76.6802, "state": "Maryland", "zip": "21114", "connections": 0, "outgree": 0, "ingree": 1, "id": 84}, {"name": "SIRIUS FEDERAL, LLC", "lat": 39.0112, "log": -76.6802, "state": "Maryland", "zip": "21114", "connections": 0, "outgree": 0, "ingree": 1, "id": 85}, {"name": "UNICOM GOVERNMENT, INC.", "lat": 38.8867, "log": -77.4457, "state": "Virginia", "zip": "20151", "connections": 0, "outgree": 0, "ingree": 1, "id": 86}, {"name": "CARAHSOFT TECHNOLOGY CORP.", "lat": 38.9615, "log": -77.3418, "state": "Virginia", "zip": "20190", "connections": 0, "outgree": 0, "ingree": 1, "id": 87}, {"name": "REGENTS OF THE UNIVERSITY OF COLORADO, THE", "lat": 39.7467, "log": -104.8384, "state": "Colorado", "zip": "80045", "connections": 0, "outgree": 0, "ingree": 1, "id": 88}, {"name": "DUCWORKS, INC.", "lat": 41.747, "log": -111.8226, "state": "Utah", "zip": "84321", "connections": 0, "outgree": 0, "ingree": 1, "id": 89}, {"name": "AMERICAN AUTOMATED ENGINEERING, INC.", "lat": 33.718, "log": -118.0505, "state": "California", "zip": "92649", "connections": 0, "outgree": 0, "ingree": 1, "id": 90}, {"name": "GENERAL DYNAMICS OTS (NICEVILLE), INC.", "lat": 38.6184, "log": -122.862, "state": "California", "zip": "95448", "connections": 0, "outgree": 0, "ingree": 1, "id": 91}, {"name": "LOCKHEED MARTIN CORPORATION", "lat": 30.0877, "log": -89.8462, "state": "Louisiana", "zip": "70129", "connections": 0, "outgree": 0, "ingree": 1, "id": 92}, {"name": "ENERSYS ADVANCED SYSTEMS INC.", "lat": 27.8387, "log": -82.7151, "state": "Florida", "zip": "33781", "connections": 0, "outgree": 0, "ingree": 1, "id": 93}, {"name": "RHENIUM ALLOYS INC", "lat": 41.3724, "log": -82.1051, "state": "Ohio", "zip": "44035", "connections": 0, "outgree": 0, "ingree": 1, "id": 94}, {"name": "ULTRAMET", "lat": 34.2556, "log": -118.4208, "state": "California", "zip": "91331", "connections": 0, "outgree": 0, "ingree": 2, "id": 95}, {"name": "ROSEMOUNT SPECIALTY PRODUCTS LLC", "lat": 47.4186, "log": -120.2731, "state": "Washington", "zip": "98802", "connections": 0, "outgree": 0, "ingree": 1, "id": 96}, {"name": "GENERAL PRODUCTS LLC", "lat": 34.7167, "log": -86.4687, "state": "Alabama", "zip": "35741", "connections": 0, "outgree": 0, "ingree": 1, "id": 97}, {"name": "UTRON KINETICS LLC", "lat": 38.7492, "log": -77.4878, "state": "Virginia", "zip": "20110", "connections": 0, "outgree": 0, "ingree": 1, "id": 98}, {"name": "FIBER MATERIALS INC.", "lat": 43.4935, "log": -70.4883, "state": "Maine", "zip": "04005", "connections": 0, "outgree": 0, "ingree": 1, "id": 99}, {"name": "TMX ENGINEERING, LLC", "lat": 33.7086, "log": -117.8701, "state": "California", "zip": "92707", "connections": 0, "outgree": 0, "ingree": 1, "id": 100}, {"name": "THALER MACHINE COMPANY, LLC", "lat": 39.563, "log": -84.2288, "state": "Ohio", "zip": "45066", "connections": 0, "outgree": 0, "ingree": 1, "id": 101}, {"name": "MARTINEZ AND TUREK, INC.", "lat": 34.1132, "log": -117.3771, "state": "California", "zip": "92376", "connections": 0, "outgree": 0, "ingree": 1, "id": 102}, {"name": "REINHOLD INDUSTRIES, INC.", "lat": 33.9464, "log": -118.0838, "state": "California", "zip": "90670", "connections": 0, "outgree": 0, "ingree": 1, "id": 103}, {"name": "WELDALOY PRODUCTS COMPANY", "lat": 42.4685, "log": -82.9974, "state": "Michigan", "zip": "48089", "connections": 0, "outgree": 0, "ingree": 1, "id": 104}, {"name": "DELL FEDERAL SYSTEMS L.P.", "lat": 30.6568, "log": -97.6026, "state": "Texas", "zip": "78682", "connections": 0, "outgree": 0, "ingree": 1, "id": 105}, {"name": "IMMIXTECHNOLOGY, INC.", "lat": 38.953, "log": -77.2295, "state": "Virginia", "zip": "22102", "connections": 0, "outgree": 0, "ingree": 1, "id": 106}, {"name": "UNIVERSITY OF NOTRE DAME DU LAC", "lat": 41.7002, "log": -86.2379, "state": "Indiana", "zip": "46556", "connections": 0, "outgree": 0, "ingree": 1, "id": 107}, {"name": "MATERIAL DYNAMICS AND DEVICES, INC.", "lat": 35.7076, "log": -78.6563, "state": "North Carolina", "zip": "27603", "connections": 0, "outgree": 0, "ingree": 1, "id": 108}, {"name": "FIFTH GAIT TECHNOLOGIES, INC.", "lat": 34.4453, "log": -119.8025, "state": "California", "zip": "93111", "connections": 0, "outgree": 0, "ingree": 1, "id": 109}, {"name": "GICHNER SYSTEMS GROUP, INC.", "lat": 39.9124, "log": -76.6535, "state": "Pennsylvania", "zip": "17313", "connections": 0, "outgree": 0, "ingree": 1, "id": 110}, {"name": "Bardan International, Inc.", "lat": 25.7629, "log": -80.1895, "state": "Florida", "zip": "33131", "connections": 0, "outgree": 0, "ingree": 1, "id": 111}, {"name": "BELCAN ENGINEERING GROUP, LLC", "lat": 39.2447, "log": -84.3455, "state": "Ohio", "zip": "45242", "connections": 0, "outgree": 0, "ingree": 1, "id": 112}, {"name": "MICRO CRAFT, INC.", "lat": 35.3468, "log": -86.22, "state": "Tennessee", "zip": "37388", "connections": 0, "outgree": 0, "ingree": 2, "id": 113}, {"name": "NATIONAL INSTRUMENTS CORPORATION", "lat": 30.4036, "log": -97.7526, "state": "Texas", "zip": "78759", "connections": 0, "outgree": 0, "ingree": 1, "id": 114}, {"name": "UNIVERSITY OF TENNESSEE", "lat": 35.045, "log": -85.2965, "state": "Tennessee", "zip": "37403", "connections": 0, "outgree": 0, "ingree": 1, "id": 115}, {"name": "CORRELATED SOLUTIONS, INC.", "lat": 34.1103, "log": -81.1966, "state": "South Carolina", "zip": "29063", "connections": 0, "outgree": 0, "ingree": 1, "id": 116}, {"name": "GLENAIR, INC.", "lat": 34.1716, "log": -118.2899, "state": "California", "zip": "91201", "connections": 0, "outgree": 0, "ingree": 2, "id": 117}, {"name": "MERCO MFG. CO.", "lat": 33.8744, "log": -117.8543, "state": "California", "zip": "92870", "connections": 0, "outgree": 0, "ingree": 1, "id": 118}, {"name": "BALL AEROSPACE & TECHNOLOGIES CORP.", "lat": 39.8854, "log": -105.1139, "state": "Colorado", "zip": "80021", "connections": 0, "outgree": 0, "ingree": 1, "id": 119}, {"name": "MOOG INC.", "lat": 42.834, "log": -78.6343, "state": "New York", "zip": "14059", "connections": 0, "outgree": 0, "ingree": 1, "id": 120}, {"name": "MASTER RESEARCH & MANUFACTURING, INC.", "lat": 33.9056, "log": -118.0818, "state": "California", "zip": "90650", "connections": 0, "outgree": 0, "ingree": 1, "id": 121}, {"name": "K T ENGINEERING CORP", "lat": 33.8748, "log": -118.2402, "state": "California", "zip": "90220", "connections": 0, "outgree": 0, "ingree": 1, "id": 122}, {"name": "GE AVIATION SYSTEMS LLC", "lat": 42.8802, "log": -85.5352, "state": "Michigan", "zip": "49512", "connections": 0, "outgree": 0, "ingree": 1, "id": 123}, {"name": "CONTOUR ENGINEERING INC.", "lat": 33.8635, "log": -118.1801, "state": "California", "zip": "90805", "connections": 0, "outgree": 0, "ingree": 1, "id": 124}, {"name": "L3 TECHNOLOGIES, INC.", "lat": 40.1159, "log": -74.8536, "state": "Pennsylvania", "zip": "19007", "connections": 0, "outgree": 0, "ingree": 2, "id": 125}, {"name": "PATRIOT MACHINE, INC.", "lat": 38.8014, "log": -90.5065, "state": "Missouri", "zip": "63301", "connections": 0, "outgree": 0, "ingree": 1, "id": 126}, {"name": "EAGLEPICHER TECHNOLOGIES, LLC", "lat": 37.0969, "log": -94.5051, "state": "Missouri", "zip": "64801", "connections": 0, "outgree": 0, "ingree": 2, "id": 127}, {"name": "DESEMCO, LLC", "lat": 34.0378, "log": -84.5038, "state": "Georgia", "zip": "30066", "connections": 0, "outgree": 0, "ingree": 1, "id": 128}, {"name": "REGAL TECHNOLOGY PARTNERS, INC.", "lat": 33.754, "log": -117.7919, "state": "California", "zip": "92705", "connections": 0, "outgree": 0, "ingree": 1, "id": 129}, {"name": "ABSL POWER SOLUTIONS INC.", "lat": 40.1559, "log": -105.1624, "state": "Colorado", "zip": "80503", "connections": 0, "outgree": 0, "ingree": 1, "id": 130}, {"name": "EXPERIOR LABORATORIES, INC.", "lat": 34.1685, "log": -119.1717, "state": "California", "zip": "93033", "connections": 0, "outgree": 0, "ingree": 1, "id": 131}, {"name": "ULTIMATE HYDROFORMING INC", "lat": 42.6124, "log": -83.0345, "state": "Michigan", "zip": "48314", "connections": 0, "outgree": 0, "ingree": 1, "id": 132}, {"name": "VALCOR ENGINEERING CORPORATION", "lat": 30.5201, "log": -91.1949, "state": "New Jersey", "zip": "70813", "connections": 0, "outgree": 0, "ingree": 1, "id": 133}, {"name": "HDL RESEARCH LAB INC", "lat": 30.1774, "log": -96.4028, "state": "Texas", "zip": "77833", "connections": 0, "outgree": 0, "ingree": 1, "id": 134}, {"name": "TRIUMPH FABRICATIONS - SAN DIEGO, INC.", "lat": 32.7928, "log": -116.9665, "state": "California", "zip": "92020", "connections": 0, "outgree": 0, "ingree": 1, "id": 135}, {"name": "PRYER AEROSPACE, LLC", "lat": 36.1754, "log": -95.9112, "state": "Oklahoma", "zip": "74115", "connections": 0, "outgree": 0, "ingree": 1, "id": 136}, {"name": "STRETCH FORMING CORPORATION", "lat": 33.7852, "log": -117.3166, "state": "California", "zip": "92570", "connections": 0, "outgree": 0, "ingree": 1, "id": 137}, {"name": "PCB PIEZOTRONICS, INC.", "lat": 42.905, "log": -78.7041, "state": "New York", "zip": "14043", "connections": 0, "outgree": 0, "ingree": 2, "id": 138}, {"name": "MAROTTA CONTROLS, INC.", "lat": 40.9049, "log": -74.3646, "state": "New Jersey", "zip": "07045", "connections": 0, "outgree": 0, "ingree": 1, "id": 139}, {"name": "ACE CLEARWATER ENTERPRISES, INC.", "lat": 33.8286, "log": -118.292, "state": "California", "zip": "90502", "connections": 0, "outgree": 0, "ingree": 1, "id": 140}, {"name": "KULITE SEMICONDUCTOR PRODUCTS, INC", "lat": 32.9557, "log": -97.3372, "state": "New Jersey", "zip": "76052", "connections": 0, "outgree": 0, "ingree": 1, "id": 141}, {"name": "WESCO AIRCRAFT HARDWARE CORP.", "lat": 34.3985, "log": -118.5535, "state": "California", "zip": "91355", "connections": 0, "outgree": 0, "ingree": 1, "id": 142}, {"name": "CIRCOR AEROSPACE, INC.", "lat": 33.9208, "log": -117.6096, "state": "California", "zip": "92880", "connections": 0, "outgree": 0, "ingree": 1, "id": 143}, {"name": "MORRIS PRECISION PRODUCTS, INC.", "lat": 34.4262, "log": -118.449, "state": "California", "zip": "91351", "connections": 0, "outgree": 0, "ingree": 1, "id": 144}, {"name": "AEROJET ROCKETDYNE, INC.", "lat": 38.5981, "log": -121.2153, "state": "California", "zip": "95742", "connections": 0, "outgree": 0, "ingree": 1, "id": 145}, {"name": "MEGGITT (ORANGE COUNTY), INC.", "lat": 33.6951, "log": -117.8224, "state": "California", "zip": "92606", "connections": 0, "outgree": 0, "ingree": 1, "id": 146}, {"name": "HONEYWELL INTERNATIONAL INC.", "lat": 27.916, "log": -82.7343, "state": "Florida", "zip": "33764", "connections": 0, "outgree": 0, "ingree": 1, "id": 147}, {"name": "ATLANTIC PRECISION, INC.", "lat": 27.3215, "log": -80.403, "state": "Florida", "zip": "34986", "connections": 0, "outgree": 0, "ingree": 1, "id": 148}, {"name": "PACIFIC SCIENTIFIC ENERGETIC MATERIALS COMPANY (CALIFORNIA) LLC", "lat": 36.8337, "log": -121.3439, "state": "California", "zip": "95023", "connections": 0, "outgree": 0, "ingree": 2, "id": 149}, {"name": "TIMES MICROWAVE SYSTEMS, INC.", "lat": 41.46, "log": -72.8222, "state": "Connecticut", "zip": "06492", "connections": 0, "outgree": 0, "ingree": 1, "id": 150}, {"name": "Pacific Scientific Energetic Materials Company (california) LLC", "lat": 33.3092, "log": -111.9198, "state": "Arizona", "zip": "85226", "connections": 0, "outgree": 0, "ingree": 1, "id": 151}, {"name": "AFM INDUSTRIES, INC.", "lat": 33.8356, "log": -117.8681, "state": "California", "zip": "92806", "connections": 0, "outgree": 0, "ingree": 1, "id": 152}, {"name": "HI-TEMP INSULATION, INC.", "lat": 34.2218, "log": -118.9866, "state": "California", "zip": "93012", "connections": 0, "outgree": 0, "ingree": 1, "id": 153}, {"name": "ROCKWELL COLLINS, INC.", "lat": 42.0794, "log": -91.5992, "state": "Iowa", "zip": "52498", "connections": 0, "outgree": 0, "ingree": 2, "id": 154}, {"name": "AERO DESIGN LLC", "lat": 34.8664, "log": -118.3409, "state": "California", "zip": "93560", "connections": 0, "outgree": 0, "ingree": 1, "id": 155}, {"name": "HONEYWELL INTERNATIONAL INC.", "lat": 44.998, "log": -93.2552, "state": "Minnesota", "zip": "55413", "connections": 0, "outgree": 0, "ingree": 2, "id": 156}, {"name": "EMBE INDUSTRIES INC", "lat": 34.1379, "log": -118.2599, "state": "California", "zip": "91204", "connections": 0, "outgree": 0, "ingree": 1, "id": 157}, {"name": "CANAM MANUFACTURING INC", "lat": 34.3985, "log": -118.5535, "state": "California", "zip": "91355", "connections": 0, "outgree": 0, "ingree": 1, "id": 158}, {"name": "STRATASYS DIRECT, INC.", "lat": 34.3985, "log": -118.5535, "state": "California", "zip": "91355", "connections": 0, "outgree": 0, "ingree": 1, "id": 159}, {"name": "WBPARTS, INC.", "lat": 28.0313, "log": -80.5995, "state": "Florida", "zip": "32905", "connections": 0, "outgree": 0, "ingree": 1, "id": 160}, {"name": "MODAL SHOP, INC., THE", "lat": 39.2638, "log": -84.4092, "state": "Ohio", "zip": "45241", "connections": 0, "outgree": 0, "ingree": 1, "id": 161}, {"name": "LOCKHEED MARTIN CORPORATION", "lat": 37.4334, "log": -122.1842, "state": "California", "zip": "94304", "connections": 0, "outgree": 0, "ingree": 1, "id": 162}, {"name": "ZIVARO, INC.", "lat": 39.679, "log": -104.9631, "state": "Colorado", "zip": "80210", "connections": 0, "outgree": 0, "ingree": 1, "id": 163}, {"name": "UNIVERSITY OF TOLEDO, THE", "lat": 41.6712, "log": -83.606, "state": "Ohio", "zip": "43606", "connections": 0, "outgree": 0, "ingree": 1, "id": 164}, {"name": "ALLCOMP INC.", "lat": 34.0443, "log": -117.9862, "state": "California", "zip": "91746", "connections": 0, "outgree": 0, "ingree": 2, "id": 165}, {"name": "ATK LAUNCH SYSTEMS INC.", "lat": 41.545, "log": -112.1514, "state": "Utah", "zip": "84307", "connections": 0, "outgree": 0, "ingree": 1, "id": 166}, {"name": "TECHNOLOGY ASSESSMENT AND TRANSFER, INC.", "lat": 38.9898, "log": -76.5501, "state": "Maryland", "zip": "21401", "connections": 0, "outgree": 0, "ingree": 1, "id": 167}, {"name": "HONEYWELL INTERNATIONAL INC.", "lat": 33.4413, "log": -112.0421, "state": "Arizona", "zip": "85034", "connections": 0, "outgree": 0, "ingree": 1, "id": 168}, {"name": "HAMILTON SUNDSTRAND CORPORATION", "lat": 42.2514, "log": -89.0235, "state": "Illinois", "zip": "61108", "connections": 0, "outgree": 0, "ingree": 1, "id": 169}, {"name": "HAMILTON SUNDSTRAND CORPORATION", "lat": 41.1005, "log": -88.2089, "state": "Connecticut", "zip": "60961", "connections": 0, "outgree": 0, "ingree": 1, "id": 170}, {"name": "Atk Elkton LLC", "lat": 39.6264, "log": -75.8458, "state": "Maryland", "zip": "21921", "connections": 0, "outgree": 0, "ingree": 1, "id": 171}, {"name": "VISION CENTRIC INC.", "lat": 34.7108, "log": -86.7425, "state": "Alabama", "zip": "35758", "connections": 0, "outgree": 0, "ingree": 1, "id": 172}, {"name": "A-P-T RESEARCH, INC.", "lat": 34.7059, "log": -86.6165, "state": "Alabama", "zip": "35805", "connections": 0, "outgree": 0, "ingree": 1, "id": 173}, {"name": "KODA TECHNOLOGIES INC.", "lat": 34.7108, "log": -86.7425, "state": "Alabama", "zip": "35758", "connections": 0, "outgree": 0, "ingree": 1, "id": 174}, {"name": "CANVAS, INC.", "lat": 34.7269, "log": -86.5673, "state": "Alabama", "zip": "35801", "connections": 0, "outgree": 0, "ingree": 1, "id": 175}, {"name": "PARSONS GOVERNMENT SERVICES INC.", "lat": 34.1478, "log": -118.1445, "state": "California", "zip": "91124", "connections": 0, "outgree": 0, "ingree": 1, "id": 176}, {"name": "PHYSITRON, INC.", "lat": 34.7059, "log": -86.6165, "state": "Alabama", "zip": "35805", "connections": 0, "outgree": 0, "ingree": 1, "id": 177}, {"name": "PENTA RESEARCH INCORPORATED", "lat": 34.7389, "log": -86.6249, "state": "Alabama", "zip": "35816", "connections": 0, "outgree": 0, "ingree": 1, "id": 178}, {"name": "KORD TECHNOLOGIES, INC.", "lat": 34.7448, "log": -86.6704, "state": "Alabama", "zip": "35806", "connections": 0, "outgree": 0, "ingree": 1, "id": 179}, {"name": "CENTRA TECHNOLOGY, INC.", "lat": 40.5396, "log": -75.4242, "state": "Massachusetts", "zip": "18034", "connections": 0, "outgree": 0, "ingree": 1, "id": 180}, {"name": "INTERSTATE ELECTRONICS CORPORATION", "lat": 33.8359, "log": -117.9086, "state": "California", "zip": "92805", "connections": 0, "outgree": 0, "ingree": 1, "id": 181}, {"name": "AMRO FABRICATING CORPORATION", "lat": 34.0557, "log": -118.0444, "state": "California", "zip": "91733", "connections": 0, "outgree": 0, "ingree": 1, "id": 182}, {"name": "PRAXIS RESOURCES INC.", "lat": 33.3054, "log": -111.7408, "state": "Arizona", "zip": "85295", "connections": 0, "outgree": 0, "ingree": 1, "id": 183}, {"name": "PROMAT INC", "lat": 35.6884, "log": -84.0769, "state": "Tennessee", "zip": "37801", "connections": 0, "outgree": 0, "ingree": 1, "id": 184}, {"name": "COBHAM MISSION SYSTEMS ORCHARD PARK INC.", "lat": 42.7639, "log": -78.7518, "state": "New York", "zip": "14127", "connections": 0, "outgree": 0, "ingree": 1, "id": 185}, {"name": "MORGAN ADVANCED CERAMICS, INC", "lat": 37.6374, "log": -122.067, "state": "California", "zip": "94544", "connections": 0, "outgree": 0, "ingree": 1, "id": 186}, {"name": "MORGAN ADVANCED CERAMICS, INC.", "lat": 37.6374, "log": -122.067, "state": "California", "zip": "94544", "connections": 0, "outgree": 0, "ingree": 1, "id": 187}, {"name": "ORBITAL SCIENCES LLC", "lat": 33.2711, "log": -111.8311, "state": "Arizona", "zip": "85286", "connections": 0, "outgree": 0, "ingree": 1, "id": 188}, {"name": "ORBITAL SCIENCES CORPORATION", "lat": 33.2509, "log": -111.8593, "state": "Arizona", "zip": "85248", "connections": 0, "outgree": 0, "ingree": 1, "id": 189}, {"name": "JANSEN'S AIRCRAFT SYSTEMS CONTROLS, INC.", "lat": 33.3917, "log": -111.9249, "state": "Arizona", "zip": "85282", "connections": 0, "outgree": 0, "ingree": 1, "id": 190}, {"name": "AEROJET ROCKETDYNE, INC.", "lat": 38.7343, "log": -77.5474, "state": "Virginia", "zip": "20136", "connections": 0, "outgree": 0, "ingree": 1, "id": 191}, {"name": "DUCOMMUN LABARGE TECHNOLOGIES, INC.", "lat": 37.0969, "log": -94.5051, "state": "Missouri", "zip": "64801", "connections": 0, "outgree": 0, "ingree": 1, "id": 192}, {"name": "AEROJET ROCKETDYNE, INC.", "lat": 38.5117, "log": -77.9928, "state": "Virginia", "zip": "22701", "connections": 0, "outgree": 0, "ingree": 1, "id": 193}, {"name": "L3 TECHNOLOGIES, INC.", "lat": 32.7973, "log": -117.1392, "state": "California", "zip": "92123", "connections": 0, "outgree": 0, "ingree": 1, "id": 194}, {"name": "TELETRONICS TECHNOLOGY CORPORATION", "lat": 40.263, "log": -74.9555, "state": "Pennsylvania", "zip": "18940", "connections": 0, "outgree": 0, "ingree": 1, "id": 195}, {"name": "DYNETICS TECHNICAL SOLUTIONS, INC.", "lat": 34.7448, "log": -86.6704, "state": "Alabama", "zip": "35806", "connections": 0, "outgree": 0, "ingree": 1, "id": 196}, {"name": "UNI-CAST, INC.", "lat": 42.8656, "log": -71.3772, "state": "New Hampshire", "zip": "03053", "connections": 0, "outgree": 0, "ingree": 1, "id": 197}, {"name": "PARKER-HANNIFIN CORPORATION", "lat": 42.5385, "log": -71.6115, "state": "Massachusetts", "zip": "01434", "connections": 0, "outgree": 0, "ingree": 1, "id": 198}, {"name": "UNI-CAST, LLC", "lat": 42.8656, "log": -71.3772, "state": "New Hampshire", "zip": "03053", "connections": 0, "outgree": 0, "ingree": 1, "id": 199}, {"name": "DESIGNLINX HARDWARE SOLUTIONS, LLC", "lat": 33.9609, "log": -83.3779, "state": "New Hampshire", "zip": "30603", "connections": 0, "outgree": 0, "ingree": 1, "id": 200}, {"name": "DESIGNLINX HARDWARE SOLUTIONS, INC.", "lat": 33.9609, "log": -83.3779, "state": "New Hampshire", "zip": "30603", "connections": 0, "outgree": 0, "ingree": 1, "id": 201}, {"name": "PCC STRUCTURALS, INC.", "lat": 44.2767, "log": -121.1896, "state": "Oregon", "zip": "97756", "connections": 0, "outgree": 0, "ingree": 1, "id": 202}, {"name": "HERLEY INDUSTRIES, INC.", "lat": 40.0091, "log": -76.3671, "state": "Pennsylvania", "zip": "17603", "connections": 0, "outgree": 0, "ingree": 1, "id": 203}, {"name": "ARCH GLOBAL PRECISION - HUNTINGDON VALLEY, LLC", "lat": 40.1284, "log": -75.0607, "state": "Pennsylvania", "zip": "19006", "connections": 0, "outgree": 0, "ingree": 1, "id": 204}, {"name": "EAGLEPICHER TECHNOLOGIES, LLC", "lat": 37.0842, "log": -94.5133, "state": "Missouri", "zip": "64802", "connections": 0, "outgree": 0, "ingree": 1, "id": 205}, {"name": "CAID INDUSTRIES, INC", "lat": 32.1392, "log": -110.9451, "state": "Arizona", "zip": "85706", "connections": 0, "outgree": 0, "ingree": 1, "id": 206}, {"name": "PORT ELECTRONICS CORPORATION", "lat": 42.708, "log": -71.1638, "state": "Massachusetts", "zip": "01840", "connections": 0, "outgree": 0, "ingree": 1, "id": 207}, {"name": "MEASUREMENT SPECIALTIES, INC.", "lat": 37.0462, "log": -76.4096, "state": "Virginia", "zip": "23666", "connections": 0, "outgree": 0, "ingree": 1, "id": 208}, {"name": "INOVAR, INC.", "lat": 41.7759, "log": -111.8068, "state": "Utah", "zip": "84341", "connections": 0, "outgree": 0, "ingree": 1, "id": 209}, {"name": "SPARTRONICS LOGAN, LLC", "lat": 41.7759, "log": -111.8068, "state": "Utah", "zip": "84341", "connections": 0, "outgree": 0, "ingree": 1, "id": 210}, {"name": "KEYSIGHT TECHNOLOGIES, INC.", "lat": 38.876, "log": -104.817, "state": "Colorado", "zip": "80907", "connections": 0, "outgree": 0, "ingree": 1, "id": 211}, {"name": "KEYSIGHT TECHNOLOGIES, INC.", "lat": 39.5805, "log": -104.9011, "state": "Colorado", "zip": "80112", "connections": 0, "outgree": 0, "ingree": 1, "id": 212}, {"name": "PORT ELECTRONICS CORP.", "lat": 42.7846, "log": -71.2176, "state": "New Hampshire", "zip": "03079", "connections": 0, "outgree": 0, "ingree": 1, "id": 213}, {"name": "SPACE VECTOR CORPORATION", "lat": 34.2583, "log": -118.5914, "state": "California", "zip": "91311", "connections": 0, "outgree": 0, "ingree": 1, "id": 214}, {"name": "GRAY'S ENGINEERING & CONSULTING, INC.", "lat": 33.3665, "log": -111.9312, "state": "Arizona", "zip": "85283", "connections": 0, "outgree": 0, "ingree": 1, "id": 215}, {"name": "CORVID TECHNOLOGIES LLC", "lat": 35.584, "log": -80.8685, "state": "North Carolina", "zip": "28117", "connections": 0, "outgree": 0, "ingree": 1, "id": 216}, {"name": "DYTRAN INSTRUMENTS INC.", "lat": 34.2583, "log": -118.5914, "state": "California", "zip": "91311", "connections": 0, "outgree": 0, "ingree": 1, "id": 217}, {"name": "ADVANCED THERMAL BATTERIES INC.", "lat": 39.5642, "log": -76.9807, "state": "Maryland", "zip": "21157", "connections": 0, "outgree": 0, "ingree": 1, "id": 218}, {"name": "COORSTEK, INC.", "lat": 39.8232, "log": -105.2825, "state": "Colorado", "zip": "80403", "connections": 0, "outgree": 0, "ingree": 1, "id": 219}, {"name": "GRAY'S ENGINEERING & CONSULTING, LLC", "lat": 33.3665, "log": -111.9312, "state": "Arizona", "zip": "85283", "connections": 0, "outgree": 0, "ingree": 1, "id": 220}, {"name": "KIRSH MANUFACTURING, INC.", "lat": 32.1941, "log": -110.9739, "state": "Arizona", "zip": "85713", "connections": 0, "outgree": 0, "ingree": 1, "id": 221}, {"name": "AEROSPEC, INC.", "lat": 33.3105, "log": -111.8239, "state": "Arizona", "zip": "85225", "connections": 0, "outgree": 0, "ingree": 1, "id": 222}, {"name": "DYNETICS, INC.", "lat": 34.7448, "log": -86.6704, "state": "Alabama", "zip": "35806", "connections": 0, "outgree": 0, "ingree": 1, "id": 223}, {"name": "ATK SPACE SYSTEMS INC.", "lat": 32.8919, "log": -117.2035, "state": "California", "zip": "92121", "connections": 0, "outgree": 0, "ingree": 1, "id": 224}, {"name": "HI-TECH MACHINING & ENGINEERING, L.L.C.", "lat": 32.1392, "log": -110.9451, "state": "Arizona", "zip": "85706", "connections": 0, "outgree": 0, "ingree": 1, "id": 225}, {"name": "DUCOMMUN LABARGE TECHNOLOGIES, INC.", "lat": 44.2773, "log": -88.3976, "state": "Wisconsin", "zip": "54911", "connections": 0, "outgree": 0, "ingree": 1, "id": 226}, {"name": "CAMI RESEARCH, INC.", "lat": 42.4751, "log": -71.4483, "state": "Massachusetts", "zip": "01720", "connections": 0, "outgree": 0, "ingree": 1, "id": 227}, {"name": "SOUTHERN GEAR & MACHINE, INC.", "lat": 25.8507, "log": -80.2366, "state": "Florida", "zip": "33147", "connections": 0, "outgree": 0, "ingree": 1, "id": 228}, {"name": "STANLEY MACHINING & TOOL CORP.", "lat": 42.123, "log": -88.2606, "state": "Illinois", "zip": "60110", "connections": 0, "outgree": 0, "ingree": 1, "id": 229}, {"name": "RADIUS AEROSPACE, INC.", "lat": 33.3092, "log": -111.9198, "state": "Arizona", "zip": "85226", "connections": 0, "outgree": 0, "ingree": 1, "id": 230}, {"name": "KLUNE INDUSTRIES, INC.", "lat": 34.2057, "log": -118.4001, "state": "California", "zip": "91605", "connections": 0, "outgree": 0, "ingree": 1, "id": 231}, {"name": "A. P. I. INCORPORATED", "lat": 32.2138, "log": -110.824, "state": "Arizona", "zip": "85710", "connections": 0, "outgree": 0, "ingree": 1, "id": 232}, {"name": "AZMARK AERO SYSTEMS, LLC", "lat": 33.3354, "log": -111.8153, "state": "Arizona", "zip": "85233", "connections": 0, "outgree": 0, "ingree": 1, "id": 233}, {"name": "LABARGE ACQUISITION COMPANY, INC.", "lat": 44.2773, "log": -88.3976, "state": "Wisconsin", "zip": "54911", "connections": 0, "outgree": 0, "ingree": 1, "id": 234}, {"name": "TRIUMPH ENGINEERED SOLUTIONS, INC.", "lat": 33.3092, "log": -111.9198, "state": "Arizona", "zip": "85226", "connections": 0, "outgree": 0, "ingree": 1, "id": 235}, {"name": "ADVANCED MATERIALS TECHNOLOGIES, LLC", "lat": 33.3092, "log": -111.9198, "state": "Arizona", "zip": "85226", "connections": 0, "outgree": 0, "ingree": 1, "id": 236}, {"name": "ADVANCED MATERIALS TECHNOLOGIES, LLC", "lat": 33.4413, "log": -112.0421, "state": "Arizona", "zip": "85034", "connections": 0, "outgree": 0, "ingree": 1, "id": 237}, {"name": "CONCURRENT TECHNOLOGIES CORPORATION", "lat": 40.285, "log": -78.8654, "state": "Pennsylvania", "zip": "15904", "connections": 0, "outgree": 0, "ingree": 1, "id": 238}, {"name": "VENTURA AEROSPACE, INC.", "lat": 34.1472, "log": -118.8383, "state": "California", "zip": "91361", "connections": 0, "outgree": 0, "ingree": 1, "id": 239}, {"name": "QUASONIX, LLC", "lat": 39.3402, "log": -84.3998, "state": "Ohio", "zip": "45069", "connections": 0, "outgree": 0, "ingree": 1, "id": 240}, {"name": "MICRO SYSTEMS, INC.", "lat": 30.4206, "log": -86.6286, "state": "Florida", "zip": "32548", "connections": 0, "outgree": 0, "ingree": 1, "id": 241}, {"name": "TEVET, LLC", "lat": 36.1839, "log": -82.9674, "state": "Tennessee", "zip": "37818", "connections": 0, "outgree": 0, "ingree": 1, "id": 242}, {"name": "TEVET, LLC", "lat": 36.1316, "log": -82.8692, "state": "Tennessee", "zip": "37743", "connections": 0, "outgree": 0, "ingree": 1, "id": 243}, {"name": "DUCOMMUN LABARGE TECHNOLOGIES, INC.", "lat": 33.4061, "log": -112.0265, "state": "Arizona", "zip": "85040", "connections": 0, "outgree": 0, "ingree": 1, "id": 244}, {"name": "CARLETON TECHNOLOGIES INC", "lat": 42.7639, "log": -78.7518, "state": "New York", "zip": "14127", "connections": 0, "outgree": 0, "ingree": 1, "id": 245}, {"name": "BADGER METER, INC.", "lat": 43.1624, "log": -87.9898, "state": "Wisconsin", "zip": "53223", "connections": 0, "outgree": 0, "ingree": 1, "id": 246}, {"name": "GLOBE MOTORS, INC.", "lat": 39.7862, "log": -84.1622, "state": "Ohio", "zip": "45404", "connections": 0, "outgree": 0, "ingree": 1, "id": 247}, {"name": "EMOTEQ CORPORATION", "lat": 36.1093, "log": -95.8506, "state": "Oklahoma", "zip": "74146", "connections": 0, "outgree": 0, "ingree": 1, "id": 248}, {"name": "ELEMENT MATERIALS TECHNOLOGY CINCINNATI INC.", "lat": 39.3266, "log": -84.5479, "state": "Ohio", "zip": "45014", "connections": 0, "outgree": 0, "ingree": 1, "id": 249}, {"name": "BAE SYSTEMS INFORMATION AND ELECTRONIC SYSTEMS INTEGRATION INC.", "lat": 41.9743, "log": -91.6554, "state": "Iowa", "zip": "52401", "connections": 0, "outgree": 0, "ingree": 1, "id": 250}, {"name": "PARALLEL VENTURES, INC.", "lat": 32.1941, "log": -110.9739, "state": "Arizona", "zip": "85713", "connections": 0, "outgree": 0, "ingree": 1, "id": 251}, {"name": "DIVERSIFIED TECHNICAL SYSTEMS, INC.", "lat": 33.7602, "log": -118.0808, "state": "California", "zip": "90740", "connections": 0, "outgree": 0, "ingree": 1, "id": 252}, {"name": "CICOIL, LLC", "lat": 34.3985, "log": -118.5535, "state": "California", "zip": "91355", "connections": 0, "outgree": 0, "ingree": 1, "id": 253}, {"name": "SHELLI INDUSTRIES LLC", "lat": 32.25, "log": -110.8869, "state": "Arizona", "zip": "85712", "connections": 0, "outgree": 0, "ingree": 1, "id": 254}, {"name": "NICOMATIC, L.P.", "lat": 40.1821, "log": -75.1479, "state": "Pennsylvania", "zip": "19044", "connections": 0, "outgree": 0, "ingree": 1, "id": 255}, {"name": "6K ADDITIVE, LLC", "lat": 40.5228, "log": -80.5901, "state": "West Virginia", "zip": "26047", "connections": 0, "outgree": 0, "ingree": 1, "id": 256}, {"name": "METACOMP TECHNOLOGIES, INC.", "lat": 34.1227, "log": -118.7573, "state": "California", "zip": "91301", "connections": 0, "outgree": 0, "ingree": 1, "id": 257}, {"name": "UNIVERSITY OF TENNESSEE", "lat": 35.9556, "log": -83.9336, "state": "Tennessee", "zip": "37916", "connections": 0, "outgree": 0, "ingree": 1, "id": 258}, {"name": "KEYENCE CORP OF AMERICA", "lat": 35.7861, "log": -96.2806, "state": "New Jersey", "zip": "74071", "connections": 0, "outgree": 0, "ingree": 1, "id": 259}, {"name": "LUNA INNOVATIONS INCORPORATED", "lat": 37.269, "log": -79.942, "state": "Virginia", "zip": "24011", "connections": 0, "outgree": 0, "ingree": 1, "id": 260}, {"name": "MUXLOW SURVEYING SERVICES, LLC", "lat": 43.3399, "log": -83.0573, "state": "Michigan", "zip": "48453", "connections": 0, "outgree": 0, "ingree": 1, "id": 261}], "links": [{"source": 18, "target": 90, "count": 5}, {"source": 18, "target": 89, "count": 1}, {"source": 18, "target": 93, "count": 1}, {"source": 18, "target": 99, "count": 2}, {"source": 18, "target": 91, "count": 1}, {"source": 18, "target": 97, "count": 1}, {"source": 18, "target": 92, "count": 3}, {"source": 18, "target": 102, "count": 1}, {"source": 18, "target": 11, "count": 4}, {"source": 18, "target": 103, "count": 1}, {"source": 18, "target": 94, "count": 1}, {"source": 18, "target": 96, "count": 1}, {"source": 18, "target": 101, "count": 3}, {"source": 18, "target": 100, "count": 3}, {"source": 18, "target": 95, "count": 2}, {"source": 18, "target": 98, "count": 1}, {"source": 18, "target": 104, "count": 1}, {"source": 21, "target": 112, "count": 5}, {"source": 21, "target": 113, "count": 1}, {"source": 21, "target": 114, "count": 1}, {"source": 5, "target": 55, "count": 1}, {"source": 5, "target": 53, "count": 2}, {"source": 12, "target": 171, "count": 1}, {"source": 5, "target": 54, "count": 1}, {"source": 10, "target": 67, "count": 1}, {"source": 10, "target": 66, "count": 1}, {"source": 12, "target": 68, "count": 2}, {"source": 20, "target": 108, "count": 1}, {"source": 15, "target": 19, "count": 2}, {"source": 16, "target": 19, "count": 1}, {"source": 14, "target": 74, "count": 3}, {"source": 14, "target": 73, "count": 2}, {"source": 14, "target": 72, "count": 1}, {"source": 14, "target": 79, "count": 1}, {"source": 14, "target": 78, "count": 1}, {"source": 14, "target": 75, "count": 5}, {"source": 14, "target": 76, "count": 2}, {"source": 14, "target": 77, "count": 2}, {"source": 28, "target": 256, "count": 1}, {"source": 28, "target": 257, "count": 1}, {"source": 7, "target": 60, "count": 1}, {"source": 25, "target": 165, "count": 5}, {"source": 25, "target": 166, "count": 1}, {"source": 25, "target": 11, "count": 5}, {"source": 25, "target": 167, "count": 5}, {"source": 25, "target": 95, "count": 5}, {"source": 29, "target": 261, "count": 1}, {"source": 9, "target": 62, "count": 4}, {"source": 13, "target": 130, "count": 2}, {"source": 13, "target": 140, "count": 8}, {"source": 13, "target": 155, "count": 1}, {"source": 13, "target": 145, "count": 1}, {"source": 2, "target": 41, "count": 5}, {"source": 13, "target": 152, "count": 3}, {"source": 2, "target": 42, "count": 5}, {"source": 13, "target": 148, "count": 2}, {"source": 9, "target": 63, "count": 2}, {"source": 13, "target": 119, "count": 3}, {"source": 2, "target": 43, "count": 4}, {"source": 13, "target": 158, "count": 1}, {"source": 9, "target": 65, "count": 1}, {"source": 13, "target": 143, "count": 1}, {"source": 13, "target": 124, "count": 1}, {"source": 13, "target": 128, "count": 3}, {"source": 13, "target": 127, "count": 3}, {"source": 13, "target": 157, "count": 2}, {"source": 13, "target": 74, "count": 13}, {"source": 13, "target": 131, "count": 4}, {"source": 9, "target": 64, "count": 2}, {"source": 13, "target": 123, "count": 2}, {"source": 13, "target": 117, "count": 2}, {"source": 13, "target": 134, "count": 5}, {"source": 13, "target": 153, "count": 2}, {"source": 13, "target": 147, "count": 2}, {"source": 13, "target": 156, "count": 3}, {"source": 13, "target": 122, "count": 4}, {"source": 13, "target": 141, "count": 2}, {"source": 13, "target": 125, "count": 1}, {"source": 13, "target": 139, "count": 4}, {"source": 13, "target": 70, "count": 1}, {"source": 13, "target": 121, "count": 9}, {"source": 9, "target": 59, "count": 5}, {"source": 13, "target": 69, "count": 1}, {"source": 13, "target": 146, "count": 1}, {"source": 13, "target": 118, "count": 3}, {"source": 13, "target": 161, "count": 1}, {"source": 13, "target": 120, "count": 2}, {"source": 13, "target": 144, "count": 3}, {"source": 13, "target": 71, "count": 1}, {"source": 13, "target": 48, "count": 1}, {"source": 13, "target": 149, "count": 2}, {"source": 13, "target": 126, "count": 3}, {"source": 13, "target": 138, "count": 2}, {"source": 13, "target": 11, "count": 1}, {"source": 9, "target": 11, "count": 7}, {"source": 13, "target": 136, "count": 2}, {"source": 13, "target": 151, "count": 2}, {"source": 13, "target": 129, "count": 8}, {"source": 13, "target": 154, "count": 1}, {"source": 13, "target": 159, "count": 1}, {"source": 13, "target": 137, "count": 1}, {"source": 13, "target": 150, "count": 1}, {"source": 13, "target": 68, "count": 5}, {"source": 13, "target": 135, "count": 1}, {"source": 13, "target": 132, "count": 1}, {"source": 13, "target": 133, "count": 2}, {"source": 13, "target": 160, "count": 1}, {"source": 13, "target": 142, "count": 2}, {"source": 27, "target": 173, "count": 1}, {"source": 27, "target": 175, "count": 1}, {"source": 27, "target": 180, "count": 1}, {"source": 27, "target": 181, "count": 2}, {"source": 27, "target": 174, "count": 2}, {"source": 27, "target": 179, "count": 1}, {"source": 27, "target": 176, "count": 1}, {"source": 27, "target": 178, "count": 1}, {"source": 27, "target": 177, "count": 1}, {"source": 27, "target": 76, "count": 1}, {"source": 27, "target": 172, "count": 2}, {"source": 3, "target": 170, "count": 15}, {"source": 3, "target": 169, "count": 1}, {"source": 3, "target": 168, "count": 17}, {"source": 3, "target": 44, "count": 12}, {"source": 3, "target": 46, "count": 1}, {"source": 3, "target": 48, "count": 5}, {"source": 3, "target": 47, "count": 1}, {"source": 3, "target": 45, "count": 11}, {"source": 3, "target": 49, "count": 1}, {"source": 11, "target": 21, "count": 1}, {"source": 19, "target": 107, "count": 1}, {"source": 6, "target": 232, "count": 12}, {"source": 6, "target": 237, "count": 1}, {"source": 6, "target": 236, "count": 1}, {"source": 6, "target": 218, "count": 3}, {"source": 6, "target": 191, "count": 1}, {"source": 6, "target": 193, "count": 2}, {"source": 6, "target": 222, "count": 2}, {"source": 6, "target": 165, "count": 7}, {"source": 6, "target": 21, "count": 31}, {"source": 6, "target": 42, "count": 2}, {"source": 6, "target": 182, "count": 3}, {"source": 6, "target": 204, "count": 2}, {"source": 6, "target": 224, "count": 4}, {"source": 6, "target": 233, "count": 5}, {"source": 6, "target": 246, "count": 3}, {"source": 6, "target": 250, "count": 2}, {"source": 6, "target": 206, "count": 3}, {"source": 6, "target": 227, "count": 2}, {"source": 6, "target": 245, "count": 1}, {"source": 6, "target": 253, "count": 2}, {"source": 6, "target": 185, "count": 2}, {"source": 6, "target": 238, "count": 3}, {"source": 6, "target": 219, "count": 2}, {"source": 6, "target": 216, "count": 2}, {"source": 6, "target": 56, "count": 1}, {"source": 6, "target": 201, "count": 2}, {"source": 6, "target": 200, "count": 1}, {"source": 6, "target": 252, "count": 2}, {"source": 6, "target": 244, "count": 1}, {"source": 6, "target": 192, "count": 16}, {"source": 6, "target": 226, "count": 5}, {"source": 6, "target": 196, "count": 13}, {"source": 6, "target": 223, "count": 1}, {"source": 6, "target": 217, "count": 3}, {"source": 6, "target": 57, "count": 2}, {"source": 6, "target": 127, "count": 7}, {"source": 6, "target": 205, "count": 1}, {"source": 6, "target": 249, "count": 2}, {"source": 6, "target": 248, "count": 2}, {"source": 6, "target": 74, "count": 7}, {"source": 6, "target": 109, "count": 1}, {"source": 6, "target": 110, "count": 1}, {"source": 6, "target": 117, "count": 3}, {"source": 6, "target": 247, "count": 1}, {"source": 6, "target": 215, "count": 1}, {"source": 6, "target": 220, "count": 1}, {"source": 6, "target": 203, "count": 4}, {"source": 6, "target": 225, "count": 5}, {"source": 6, "target": 156, "count": 3}, {"source": 6, "target": 58, "count": 2}, {"source": 6, "target": 209, "count": 6}, {"source": 6, "target": 80, "count": 1}, {"source": 6, "target": 190, "count": 5}, {"source": 6, "target": 212, "count": 4}, {"source": 6, "target": 211, "count": 2}, {"source": 6, "target": 221, "count": 3}, {"source": 6, "target": 231, "count": 3}, {"source": 6, "target": 194, "count": 6}, {"source": 6, "target": 125, "count": 2}, {"source": 6, "target": 234, "count": 2}, {"source": 6, "target": 70, "count": 7}, {"source": 6, "target": 59, "count": 1}, {"source": 6, "target": 208, "count": 8}, {"source": 6, "target": 113, "count": 6}, {"source": 6, "target": 241, "count": 2}, {"source": 6, "target": 186, "count": 4}, {"source": 6, "target": 187, "count": 1}, {"source": 6, "target": 255, "count": 2}, {"source": 8, "target": 61, "count": 1}, {"source": 6, "target": 189, "count": 4}, {"source": 6, "target": 188, "count": 2}, {"source": 6, "target": 48, "count": 12}, {"source": 6, "target": 149, "count": 4}, {"source": 6, "target": 251, "count": 3}, {"source": 6, "target": 198, "count": 5}, {"source": 6, "target": 138, "count": 3}, {"source": 6, "target": 202, "count": 4}, {"source": 6, "target": 213, "count": 1}, {"source": 6, "target": 207, "count": 4}, {"source": 6, "target": 183, "count": 5}, {"source": 6, "target": 184, "count": 3}, {"source": 6, "target": 240, "count": 3}, {"source": 6, "target": 230, "count": 4}, {"source": 6, "target": 154, "count": 1}, {"source": 6, "target": 254, "count": 1}, {"source": 6, "target": 228, "count": 3}, {"source": 6, "target": 214, "count": 3}, {"source": 6, "target": 210, "count": 4}, {"source": 6, "target": 229, "count": 11}, {"source": 6, "target": 195, "count": 5}, {"source": 6, "target": 243, "count": 1}, {"source": 6, "target": 242, "count": 1}, {"source": 6, "target": 68, "count": 11}, {"source": 6, "target": 235, "count": 1}, {"source": 6, "target": 197, "count": 8}, {"source": 6, "target": 199, "count": 1}, {"source": 6, "target": 239, "count": 6}, {"source": 26, "target": 59, "count": 1}, {"source": 17, "target": 88, "count": 1}, {"source": 23, "target": 164, "count": 1}, {"source": 0, "target": 35, "count": 7}, {"source": 0, "target": 31, "count": 17}, {"source": 0, "target": 111, "count": 4}, {"source": 0, "target": 87, "count": 1}, {"source": 0, "target": 81, "count": 2}, {"source": 0, "target": 105, "count": 6}, {"source": 0, "target": 84, "count": 2}, {"source": 0, "target": 83, "count": 1}, {"source": 0, "target": 36, "count": 3}, {"source": 0, "target": 32, "count": 12}, {"source": 0, "target": 106, "count": 4}, {"source": 0, "target": 25, "count": 13}, {"source": 0, "target": 82, "count": 9}, {"source": 0, "target": 33, "count": 15}, {"source": 0, "target": 34, "count": 29}, {"source": 0, "target": 37, "count": 5}, {"source": 0, "target": 30, "count": 15}, {"source": 0, "target": 85, "count": 1}, {"source": 0, "target": 86, "count": 1}, {"source": 0, "target": 163, "count": 1}, {"source": 24, "target": 21, "count": 1}, {"source": 22, "target": 162, "count": 1}, {"source": 1, "target": 40, "count": 2}, {"source": 1, "target": 39, "count": 1}, {"source": 1, "target": 38, "count": 1}, {"source": 4, "target": 51, "count": 2}, {"source": 4, "target": 116, "count": 1}, {"source": 4, "target": 52, "count": 1}, {"source": 4, "target": 259, "count": 1}, {"source": 4, "target": 260, "count": 1}, {"source": 4, "target": 19, "count": 1}, {"source": 4, "target": 50, "count": 1}, {"source": 4, "target": 115, "count": 1}, {"source": 4, "target": 258, "count": 1}]}